City_ID,City,Country,Lat,Lng,Max Temp,Humidity,Cloudiness,Wind Speed,Country
0,Svetlyy,RU,54.675,20.1347,37.96,71,94,16.2,RU
1,Ushuaia,AR,-54.8,-68.3,47.86,61,75,17.27,AR
2,Mar Del Plata,AR,-38.0023,-57.5575,61.09,72,0,4.61,AR
3,Mayumba,GA,-3.432,10.6554,75.63,83,99,6.58,GA
4,Bathsheba,BB,13.2167,-59.5167,81.21,78,40,17.27,BB
5,Chuy,UY,-33.6971,-53.4616,54.82,66,0,6.24,UY
6,Bubaque,GW,11.2833,-15.8333,81.86,72,100,8.32,GW
7,Mehamn,NO,71.0357,27.8492,40.95,75,75,13.8,NO
8,Bredasdorp,ZA,-34.5322,20.0403,62.46,66,93,4.5,ZA
9,Vila Franca Do Campo,PT,37.7167,-25.4333,67.19,90,59,15.66,PT
10,Muleba,TZ,-1.8397,31.6544,67.78,77,89,2.84,TZ
11,Puerto Colombia,CO,10.9878,-74.9547,82.49,83,42,13.0,CO
12,Inhuma,BR,-6.6683,-41.7078,73.4,56,47,4.97,BR
13,Saint-Francois,FR,46.4154,3.9054,44.67,93,100,5.75,FR
14,Mulanje,MW,-16.0316,35.5,73.9,81,43,4.03,MW
15,Port-Gentil,GA,-0.7193,8.7815,79.09,79,100,10.25,GA
16,Monte Alegre,BR,-2.0078,-54.0692,75.45,83,41,3.6,BR
17,Lagoa,PT,39.05,-27.9833,63.77,93,55,26.84,PT
18,Saint George,US,37.1041,-113.5841,44.26,40,0,7.0,US
19,Gat,IL,31.61,34.7642,62.4,100,5,5.61,IL
20,Methoni,GR,36.8197,21.7049,59.22,71,91,11.86,GR
21,Grand-Santi,GF,4.25,-54.3833,70.95,93,91,2.73,GF
22,Bardiyah,LY,31.7561,25.0865,62.85,79,8,10.29,LY
23,Port Alfred,ZA,-33.5906,26.891,64.18,79,35,1.99,ZA
24,East London,ZA,-33.0153,27.9116,63.54,88,0,5.75,ZA
25,Jamestown,US,42.097,-79.2353,34.02,80,100,9.22,US
26,Harrismith,ZA,-28.2728,29.1295,63.52,57,71,4.81,ZA
27,Beloha,MG,-25.1667,45.05,78.73,65,49,4.97,MG
28,Gornopravdinsk,RU,60.05,69.9,2.23,92,100,7.85,RU
29,Arraial Do Cabo,BR,-22.9661,-42.0278,72.23,89,100,6.44,BR
30,Jalu,LY,29.0331,21.5482,59.29,54,21,4.97,LY
31,Pangnirtung,CA,66.1451,-65.7125,-0.72,92,98,3.31,CA
32,Victoria,HK,22.2855,114.1577,82.45,87,99,3.0,HK
33,Matara,LK,5.9485,80.5353,83.79,67,100,2.98,LK
34,Tasiilaq,GL,65.6145,-37.6368,21.85,58,96,5.79,GL
35,Manjacaze,MZ,-24.7117,33.8828,71.44,61,0,5.21,MZ
36,Bambous Virieux,MU,-20.3428,57.7575,77.22,68,40,8.05,MU
37,Lakhtar,IN,22.85,71.7833,83.44,30,2,5.79,IN
38,Khorixas,NA,-20.3667,14.9667,67.32,40,1,1.74,NA
39,Muli,MV,2.9167,73.5667,81.57,73,98,9.93,MV
40,Ponta Do Sol,PT,32.6667,-17.1,66.7,60,95,6.11,PT
41,General Roca,AR,-39.0333,-67.5833,66.61,36,25,4.5,AR
42,Yelets,RU,52.6237,38.5017,30.18,98,100,5.32,RU
43,Hithadhoo,MV,-0.6,73.0833,81.73,75,99,10.94,MV
44,Gamba,GA,-2.65,10.0,75.96,82,99,5.26,GA
45,Chicama,PE,-7.8447,-79.1469,61.34,83,93,5.17,PE
46,Axim,GH,4.8699,-2.2405,77.09,86,30,3.94,GH
47,Morant Bay,JM,17.8815,-76.4093,80.22,83,9,8.37,JM
48,Middlebury,US,44.0153,-73.1673,32.0,97,100,5.75,US
49,Kruisfontein,ZA,-34.0033,24.7314,62.89,71,26,15.64,ZA
50,Sechura,PE,-5.5569,-80.8222,64.11,85,85,12.26,PE
51,Santa Rosa,PH,14.3122,121.1114,92.1,63,22,15.35,PH
52,Longyearbyen,SJ,78.2186,15.6401,40.84,70,40,16.11,SJ
53,Muros,ES,42.7762,-9.0603,58.08,89,100,15.61,ES
54,Ambilobe,MG,-13.2,49.05,81.52,62,4,4.72,MG
55,Cape Town,ZA,-33.9258,18.4232,63.91,72,0,6.91,ZA
56,Karlovac,HR,45.4872,15.5478,54.01,87,100,1.54,HR
57,Boca Do Acre,BR,-8.7522,-67.3978,71.31,99,100,3.49,BR
58,Bengkulu,ID,-3.8004,102.2655,86.59,63,56,16.91,ID
59,Narsaq,GL,60.9167,-46.05,16.5,95,99,3.62,GL
60,Puerto Baquerizo Moreno,EC,-0.9,-89.6,68.77,79,90,11.61,EC
61,Atar,MR,20.5169,-13.0499,75.94,30,51,8.68,MR
62,Saint Anthony,US,45.0205,-93.218,32.25,94,100,3.44,US
63,Anloga,GH,5.7947,0.8973,80.22,80,16,9.33,GH
64,Betanzos,ES,43.2804,-8.2147,58.12,83,75,9.22,ES
65,Progreso,MX,21.2833,-89.6667,77.67,83,9,9.84,MX
66,Saint-Philippe,RE,-21.3585,55.7679,76.59,69,57,8.93,RE
67,Virginia Beach,US,36.8529,-75.978,66.02,85,100,8.05,US
68,Valparaiso,CL,-33.0393,-71.6273,56.84,94,1,1.14,CL
69,Itapuranga,BR,-15.5622,-49.9486,68.92,84,43,4.34,BR
70,Saldanha,ZA,-33.0117,17.9442,63.0,80,98,9.01,ZA
71,Nouadhibou,MR,20.931,-17.0347,73.81,55,0,11.83,MR
72,Taguatinga,BR,-12.3857,-46.5711,74.5,83,95,3.56,BR
73,Salalah,OM,17.0151,54.0924,80.76,46,38,2.53,OM
74,Sinnamary,GF,5.3833,-52.95,77.05,86,85,8.75,GF
75,Nouakchott,MR,18.0858,-15.9785,76.93,39,0,10.09,MR
76,Sao Joao Da Barra,BR,-21.6403,-41.0511,70.0,95,100,10.49,BR
77,Punta Arenas,CL,-53.15,-70.9167,46.51,61,40,34.52,CL
78,Souillac,MU,-20.5167,57.5167,73.78,68,40,8.05,MU
79,Upernavik,GL,72.7868,-56.1549,18.14,76,100,5.79,GL
80,Viytivka,UA,48.426,29.5429,37.87,91,88,3.09,UA
81,Ilulissat,GL,69.2167,-51.1,11.55,95,100,3.89,GL
82,Busselton,AU,-33.65,115.3333,71.49,46,100,12.59,AU
83,Mazagao,BR,-0.115,-51.2894,78.85,93,53,3.29,BR
84,Hermanus,ZA,-34.4187,19.2345,56.8,77,100,6.62,ZA
85,Sao Filipe,CV,14.8961,-24.4956,74.5,73,55,3.76,CV
86,Iqaluit,CA,63.7506,-68.5145,6.53,78,100,6.91,CA
87,Turinskaya Sloboda,RU,57.6232,64.3858,-1.3,95,92,7.38,RU
88,Torbay,CA,47.6666,-52.7314,33.76,88,40,6.91,CA
89,Ribeira Grande,PT,38.5167,-28.7,67.77,92,62,18.99,PT
90,Cockburn Town,TC,21.4612,-71.1419,81.55,77,3,18.05,TC
91,Chilca,PE,-12.5211,-76.7372,62.49,90,77,5.97,PE
92,Luba,GQ,3.4568,8.5547,79.23,77,93,2.33,GQ
93,Inhambane,MZ,-23.865,35.3833,72.41,59,0,1.45,MZ
94,Rocha,UY,-34.4833,-54.3333,55.87,57,0,5.08,UY
95,Gogrial,SS,8.5332,28.1004,73.8,37,29,4.29,SS
96,Aras,ES,42.5617,-2.356,51.76,87,0,3.44,ES
97,Camana,PE,-16.6228,-72.7111,64.96,83,100,4.85,PE
98,Uxbridge,US,42.0773,-71.6295,36.66,86,100,4.0,US
99,Ewo,CG,-0.8725,14.8206,72.27,92,100,1.5,CG
100,Requena,ES,39.4883,-1.1004,59.52,61,100,19.69,ES
101,Boueni,YT,-12.9025,45.0761,78.78,75,85,3.29,YT
102,Esil,KZ,51.9556,66.4042,19.13,89,100,12.71,KZ
103,Ovalle,CL,-30.5983,-71.2003,64.47,72,93,3.53,CL
104,Bestobe,KZ,52.4994,73.0975,25.21,77,86,23.06,KZ
105,Dahuk,IQ,36.8695,42.994,56.66,39,99,2.86,IQ
106,Qaanaaq,GL,77.484,-69.3632,-2.49,86,18,6.4,GL
107,Vestmannaeyjar,IS,63.4427,-20.2734,45.09,91,100,13.78,IS
108,Vila Velha,BR,-20.3297,-40.2925,72.95,97,100,1.07,BR
109,Nanortalik,GL,60.1432,-45.2371,24.55,81,100,10.49,GL
110,Obo,CF,5.3998,26.4869,69.19,69,75,2.91,CF
111,Palaia Fokaia,GR,37.72,23.9463,61.92,78,100,2.17,GR
112,Dikson,RU,73.5069,80.5464,-8.72,100,54,2.51,RU
113,Nuuk,GL,64.1835,-51.7216,22.87,92,100,4.0,GL
114,Horki,BY,54.2861,30.9842,32.02,86,100,10.13,BY
115,Porbandar,IN,21.6422,69.6093,83.37,48,5,5.61,IN
116,Teguldet,RU,57.3064,88.1667,32.9,97,100,11.39,RU
117,Foki,RU,56.693,54.3499,14.83,74,60,4.34,RU
118,Lebu,CL,-37.6167,-73.65,53.53,93,28,5.5,CL
119,Clyde River,CA,70.4692,-68.5914,-4.58,79,5,4.85,CA
120,Thompson,CA,55.7435,-97.8558,8.76,92,100,4.61,CA
121,Sumbe,AO,-11.2061,13.8437,72.75,81,99,2.66,AO
122,Westport,US,41.1415,-73.3579,43.75,85,100,11.99,US
123,Batticaloa,LK,7.7102,81.6924,82.22,75,97,11.14,LK
124,Calama,CL,-22.4667,-68.9333,48.69,31,0,18.41,CL
125,Kalabo,ZM,-14.97,22.6814,69.55,80,100,7.31,ZM
126,Selfoss,IS,63.9331,-20.9971,47.05,77,100,21.72,IS
127,San Cristobal,VE,7.7669,-72.225,65.48,96,80,1.97,VE
128,Antsohihy,MG,-14.8796,47.9875,81.55,59,0,2.91,MG
129,Gaoual,GN,11.75,-13.2,74.03,81,100,1.34,GN
130,Uetze,DE,52.4651,10.2047,51.33,89,75,10.36,DE
131,Cervo,ES,43.6702,-7.4101,58.37,76,100,16.58,ES
132,Batie,BF,9.8833,-2.9167,69.4,25,33,4.07,BF
133,Georgetown,MY,5.4112,100.3354,85.98,78,20,3.44,MY
134,Vardo,NO,70.3705,31.1107,39.18,87,75,18.41,NO
135,Leshukonskoye,RU,64.8989,45.7622,25.63,96,100,7.09,RU
136,Kudahuvadhoo,MV,2.6708,72.8944,80.78,77,94,10.51,MV
137,Plyussa,RU,58.4308,29.3654,32.31,84,100,5.59,RU
138,Sao Felix Do Xingu,BR,-6.6447,-51.995,72.45,98,99,0.38,BR
139,Coquimbo,CL,-29.9533,-71.3436,58.84,88,99,3.09,CL
140,Margate,GB,51.3813,1.3862,54.9,93,47,20.62,GB
141,Olafsvik,IS,64.8945,-23.7142,43.72,87,100,13.02,IS
142,Iesolo,IT,45.5331,12.6448,52.43,87,100,6.13,IT
143,Mindelo,CV,16.8901,-24.9804,71.15,78,20,11.5,CV
144,Sao Jose Da Coroa Grande,BR,-8.8978,-35.1478,75.47,81,14,6.87,BR
145,Kirando,TZ,-7.4167,30.6,74.14,79,100,3.13,TZ
146,Jutai,BR,-5.1833,-68.9,72.84,99,100,1.83,BR
147,Yanam,IN,16.7333,82.2167,85.08,42,13,3.76,IN
148,Faya,SA,18.3851,42.4509,58.71,44,0,1.39,SA
149,Grand Gaube,MU,-20.0064,57.6608,77.38,50,16,5.99,MU
150,Kasane,BW,-17.8167,25.15,72.45,65,16,6.26,BW
151,Vierzon,FR,47.2101,2.0625,50.38,90,41,14.27,FR
152,Dergachi,RU,51.2328,48.7659,27.45,81,100,5.7,RU
153,Nattam,IN,10.2333,78.2333,82.85,75,87,7.99,IN
154,Pisco,PE,-13.7,-76.2167,61.99,87,51,1.79,PE
155,Santa Maria,BR,-29.6842,-53.8069,61.2,57,0,2.84,BR
156,Hamilton,US,39.1834,-84.5333,39.72,88,100,5.99,US
157,Goderich,CA,43.7501,-81.7165,30.9,95,100,21.63,CA
158,Port Elizabeth,ZA,-33.918,25.5701,69.31,63,0,5.75,ZA
159,Saint-Georges,GD,12.0564,-61.7485,78.89,83,22,12.68,GD
160,Khor,RU,47.8861,134.9464,30.49,55,99,9.75,RU
161,Ati,TD,13.2154,18.3353,70.63,22,83,10.13,TD
162,Monrovia,LR,6.3005,-10.7969,76.08,85,100,2.98,LR
163,Borba,BR,-4.3878,-59.5939,73.71,96,100,2.39,BR
164,Bonthe,SL,7.5264,-12.505,75.78,88,99,3.24,SL
165,Birnin Kebbi,NG,12.4539,4.1975,67.46,22,5,8.08,NG
166,Umm Kaddadah,SD,13.6017,26.6876,65.82,30,17,13.27,SD
167,Hanumangarh,IN,29.5833,74.3167,73.92,33,0,6.64,IN
168,Mount Pleasant,US,32.7941,-79.8626,69.98,97,100,8.01,US
169,Farkhor,TJ,37.4922,69.4036,54.07,44,75,1.1,TJ
170,Itaituba,BR,-4.2761,-55.9836,75.47,84,93,1.9,BR
171,Dhidhdhoo,MV,6.8833,73.1,81.12,77,96,6.58,MV
172,Bandarbeyla,SO,9.4942,50.8122,80.69,66,8,15.35,SO
173,Ostrovnoy,RU,68.0531,39.5131,36.84,77,100,23.22,RU
174,Cidreira,BR,-30.1811,-50.2056,63.45,70,0,7.78,BR
175,Rawson,AR,-43.3002,-65.1023,68.59,42,63,12.53,AR
176,Katav-Ivanovsk,RU,54.7531,58.1956,16.79,89,100,2.77,RU
177,Weligama,LK,5.9667,80.4167,83.57,66,100,3.27,LK
178,Clarence Town,AU,-32.5833,151.7833,68.61,55,83,8.86,AU
179,Quatre Cocos,MU,-20.2078,57.7625,77.09,66,57,8.14,MU
180,Tessalit,ML,20.1986,1.0114,68.0,21,99,4.5,ML
181,Balkhash,KZ,46.844,74.9804,32.61,80,40,22.37,KZ
182,Spas-Klepiki,RU,55.1347,40.1767,27.32,87,99,6.82,RU
183,Paamiut,GL,61.994,-49.6678,17.11,89,58,13.13,GL
184,Piranshahr,IR,36.701,45.1413,45.36,38,2,0.87,IR
185,Sapucaia,BR,-29.8333,-51.15,66.33,74,0,5.75,BR
186,Kamenka,RU,51.3223,42.7678,29.23,60,100,11.72,RU
187,Budaun,IN,28.05,79.1167,77.0,39,0,5.1,IN
188,Rosetta,EG,31.4044,30.4164,65.08,62,11,6.22,EG
189,Pemba,MZ,-12.974,40.5178,79.25,75,10,5.73,MZ
190,Abha,SA,18.2164,42.5053,58.46,35,0,1.16,SA
191,Caconda,AO,-13.7333,15.0667,62.19,78,93,2.71,AO
192,Kishanganj,IN,26.1167,87.9333,77.43,40,0,2.86,IN
193,Necochea,AR,-38.5473,-58.7368,56.59,65,0,4.47,AR
194,Oblivskaya,RU,48.5362,42.5014,27.9,68,81,7.83,RU
195,Rio Grande,BR,-32.035,-52.0986,61.45,67,0,9.57,BR
196,Damaturu,NG,11.747,11.9608,65.82,39,48,8.43,NG
197,Barcelos,PT,41.5388,-8.6151,59.14,95,100,8.39,PT
198,Hobyo,SO,5.3505,48.5268,82.06,70,63,14.16,SO
199,Comodoro Rivadavia,AR,-45.8667,-67.5,60.19,47,72,16.69,AR
200,Kumla,SE,59.1277,15.1434,41.0,70,100,12.66,SE
201,Ribas Do Rio Pardo,BR,-20.4431,-53.7592,59.77,64,0,5.26,BR
202,Gusau,NG,12.1628,6.6614,65.37,27,22,9.71,NG
203,Staraya Poltavka,RU,50.4772,46.4814,30.51,60,100,7.14,RU
204,Satka,RU,55.0425,59.04,12.31,90,100,3.18,RU
205,Marawi,PH,7.9986,124.2928,77.49,82,100,5.53,PH
206,Dingle,PH,10.9995,122.6711,85.84,73,85,12.55,PH
207,Thurso,GB,58.5927,-3.5259,52.05,91,100,17.72,GB
208,Lasa,IT,46.6166,10.7002,40.03,99,100,0.2,IT
209,Honningsvag,NO,70.9821,25.9704,40.75,75,75,11.5,NO
210,Luderitz,NA,-26.6481,15.1594,60.57,57,7,11.01,NA
211,Agadez,NE,19.75,10.25,59.31,26,99,8.21,NE
212,Ugoofaaru,MV,5.6667,73.0,81.27,76,96,8.95,MV
213,Husavik,IS,66.0449,-17.3389,42.4,91,88,9.91,IS
214,Kemijarvi,FI,66.7131,27.4306,23.94,94,100,2.1,FI
215,Kissidougou,GN,9.1848,-10.0999,67.96,93,97,0.54,GN
216,Pavlodolskaya,RU,43.7192,44.4781,33.85,70,2,8.14,RU
217,Hofn,IS,64.2539,-15.2082,45.95,95,100,18.5,IS
218,Ocland,RO,46.1667,25.4167,39.54,73,100,1.43,RO
219,Codrington,AU,-38.2667,141.9667,55.47,61,48,14.18,AU
220,Mahebourg,MU,-20.4081,57.7,77.25,68,82,8.16,MU
221,Cap Malheureux,MU,-19.9842,57.6142,77.47,50,12,5.99,MU
222,Igarka,RU,67.4667,86.5833,-18.96,99,74,7.61,RU
223,Harper,LR,4.375,-7.7169,76.66,85,59,4.47,LR
224,Miraflores,MX,19.2167,-98.8083,58.87,68,38,2.24,MX
225,Geraldton,AU,-28.7667,114.6,75.61,64,0,19.57,AU
226,Micheweni,TZ,-4.9667,39.8333,79.43,80,4,4.97,TZ
227,Impfondo,CG,1.6381,18.0667,71.46,94,99,1.92,CG
228,Pamplona,ES,42.8169,-1.6432,50.99,84,20,4.61,ES
229,Esperantina,BR,-3.9017,-42.2336,72.64,86,18,2.71,BR
230,Jepelacio,PE,-6.1167,-76.95,64.9,99,100,1.21,PE
231,Lucapa,AO,-8.4192,20.7447,65.79,97,100,2.06,AO
232,Aksay,RU,47.26,39.87,29.25,51,51,4.0,RU
233,Ereymentau,KZ,51.6199,73.1033,21.09,84,98,23.33,KZ
234,Salinas,US,36.6777,-121.6555,57.85,61,0,3.87,US
235,Walvis Bay,NA,-22.9575,14.5053,58.08,82,0,8.46,NA
236,Umtata,ZA,-31.5889,28.7844,61.16,75,77,3.69,ZA
237,Islamkot,PK,24.6997,70.177,83.32,25,0,8.81,PK
238,Colwyn Bay,GB,53.2948,-3.7267,46.26,3,76,9.8,GB
239,Baft,IR,29.234,56.6057,52.63,34,0,2.3,IR
240,Bumba,CD,2.1833,22.4667,70.29,96,100,1.32,CD
241,Hunucma,MX,21.0167,-89.8667,78.89,93,23,4.03,MX
242,Muisne,EC,0.6,-80.0333,73.54,87,100,10.71,EC
243,Willowmore,ZA,-33.2926,23.4895,60.03,57,78,6.02,ZA
244,Santa Ana,US,33.7456,-117.8678,67.6,22,0,10.0,US
245,Ayagoz,KZ,47.9714,80.4392,34.39,79,98,21.68,KZ
246,Verkhnyaya Toyma,RU,62.2349,44.9985,19.15,65,93,4.36,RU
247,Thinadhoo,MV,0.5333,72.9333,81.63,73,100,11.01,MV
248,Mitsamiouli,KM,-11.3847,43.2844,78.49,78,99,8.01,KM
249,Krasnoselkup,RU,65.7,82.4667,-13.68,98,19,9.26,RU
250,Opuwo,NA,-18.0607,13.84,69.94,25,35,1.74,NA
251,Viedma,AR,-40.8135,-62.9967,62.71,51,33,11.01,AR
252,Nsanje,MW,-16.92,35.262,78.85,72,7,3.38,MW
253,Menongue,AO,-14.6585,17.691,64.78,80,89,3.2,AO
254,Kumluca,TR,36.3703,30.2869,59.23,50,0,5.48,TR
255,Diego De Almagro,CL,-26.3667,-70.05,59.05,59,100,0.63,CL
256,Marfino,RU,55.7028,37.3822,26.94,85,100,11.18,RU
257,Carutapera,BR,-1.195,-46.02,76.08,82,87,7.27,BR
258,Tazovskiy,RU,67.4667,78.7,-11.45,95,70,6.89,RU
259,Ust-Tsilma,RU,65.441,52.1498,12.15,92,100,6.64,RU
260,Sorland,NO,67.667,12.6934,42.66,53,25,8.48,NO
261,Richards Bay,ZA,-28.783,32.0377,70.97,72,45,3.94,ZA
262,Tira Sujanpur,IN,31.8333,76.5,69.94,33,62,2.01,IN
263,Skjervoy,NO,70.0311,20.9714,26.6,46,100,7.9,NO
264,Alta Floresta,BR,-9.8756,-56.0861,70.79,99,95,2.15,BR
265,Mafinga,TZ,-7.25,35.0667,74.97,48,60,5.37,TZ
266,Kalmanka,RU,52.8992,83.5433,36.3,84,74,18.59,RU
267,Panjab,AF,34.388,67.0233,24.12,72,12,2.93,AF
268,Touros,BR,-5.1989,-35.4608,77.14,74,4,11.68,BR
269,Dumka,IN,24.2667,87.25,78.1,37,0,7.25,IN
270,Cabedelo,BR,-6.9811,-34.8339,76.82,81,10,9.82,BR
271,Volkhov,RU,59.9258,32.3382,32.92,66,98,4.83,RU
272,Mbandaka,CD,0.0487,18.2603,70.3,96,100,1.5,CD
273,Nador,MA,35.174,-2.9287,70.05,60,0,5.75,MA
274,Havoysund,NO,70.9963,24.6622,41.23,77,100,12.01,NO
275,Klaksvik,FO,62.2266,-6.589,47.32,90,100,28.52,FO
276,Peine,DE,52.3167,10.2333,51.1,84,100,3.0,DE
277,Monastyrshchina,RU,54.3496,31.838,30.54,87,100,10.33,RU
278,Chapayevka,UA,47.4711,36.3451,39.42,78,83,7.05,UA
279,Puerto Madryn,AR,-42.7692,-65.0385,70.23,44,40,6.93,AR
280,Veraval,IN,20.9,70.3667,84.02,37,0,6.78,IN
281,Tripoli,LY,32.8752,13.1875,66.81,39,0,13.51,LY
282,Carnarvon,AU,-24.8667,113.6333,74.05,69,0,21.63,AU
283,Kirkuk,IQ,35.4681,44.3922,61.75,31,63,7.47,IQ
284,Imbituba,BR,-28.24,-48.6703,64.2,72,0,5.66,BR
285,Mancio Lima,BR,-7.6142,-72.8958,72.23,99,99,1.88,BR
286,Troitsko-Pechorsk,RU,62.7084,56.1964,-19.89,100,26,1.07,RU
287,Fereydun Kenar,IR,36.6864,52.5225,58.21,66,0,9.71,IR
288,Wielun,PL,51.221,18.5696,39.58,91,64,8.46,PL
289,Cayenne,GF,4.9333,-52.3333,73.44,100,0,0.0,GF
290,Hargeysa,SO,9.56,44.065,64.24,42,21,2.91,SO
291,Andenes,NO,69.3143,16.1194,31.98,86,0,12.66,NO
292,Carahue,CL,-38.7,-73.1667,49.35,97,16,1.79,CL
293,Padang,ID,-0.9492,100.3543,75.25,90,99,5.79,ID
294,Sitrah,BH,26.1547,50.6206,82.4,65,0,0.0,BH
295,Paita,PE,-5.0892,-81.1144,63.86,85,92,13.49,PE
296,Porto Seguro,BR,-16.4497,-39.0647,73.92,100,75,2.3,BR
297,Guantanamo,CU,20.1444,-75.2092,76.46,91,12,4.47,CU
298,Itarema,BR,-2.9248,-39.9167,76.73,78,1,14.14,BR
299,Tsiroanomandidy,MG,-18.7667,46.0333,71.2,70,83,6.91,MG
300,Sambava,MG,-14.2667,50.1667,77.63,72,7,9.22,MG
301,Marinette,US,45.1,-87.6307,32.49,93,100,8.39,US
302,Thunder Bay,CA,48.4001,-89.3168,26.71,86,100,8.48,CA
303,Castro,BR,-24.7911,-50.0119,52.09,80,0,3.87,BR
304,Gbarnga,LR,6.9956,-9.4722,69.76,99,100,2.08,LR
305,Tsabong,BW,-26.0217,22.401,73.08,33,1,5.95,BW
306,Salinopolis,BR,-0.6136,-47.3561,78.21,77,67,11.83,BR
307,Yar-Sale,RU,66.8333,70.8333,-5.82,83,66,7.9,RU
308,Ancud,CL,-41.8697,-73.8203,52.45,97,98,6.15,CL
309,Kuytun,RU,54.3419,101.5036,34.34,81,99,5.82,RU
310,Kajaani,FI,64.2273,27.7285,26.65,93,100,6.91,FI
311,Yellandu,IN,17.6,80.3333,77.52,47,27,3.58,IN
312,Bergen,NO,60.392,5.328,50.41,43,0,8.05,NO
313,Santa Elena,EC,-2.2333,-80.85,68.61,83,100,8.16,EC
314,Brae,GB,60.3964,-1.353,50.88,88,100,41.67,GB
315,Kinsale,IE,51.7075,-8.5306,42.17,93,40,3.44,IE
316,Naregal,IN,15.5833,75.8167,80.64,42,0,10.27,IN
317,Puerto Narino,CO,-3.7703,-70.3831,73.13,98,100,1.86,CO
318,Rioja,AR,-29.4111,-66.8507,80.26,36,94,7.99,AR
319,Santa Lucia,ES,27.9117,-15.5407,67.77,28,0,5.75,ES
320,Agustin Codazzi,CO,10.0341,-73.2361,71.98,89,85,4.03,CO
321,Zabol,AF,32.25,67.25,46.33,32,0,5.53,AF
322,Saint-Augustin,CA,51.226,-58.6502,18.75,84,6,7.54,CA
323,Marsh Harbour,BS,26.5412,-77.0636,78.87,74,26,5.79,BS
324,Guasdualito,VE,7.2424,-70.7324,72.54,98,88,3.56,VE
325,Saint-Pierre,RE,-21.3393,55.4781,76.68,53,20,18.41,RE
326,Rio Gallegos,AR,-51.6226,-69.2181,46.45,53,0,11.5,AR
327,Tesalia,CO,2.4859,-75.7292,67.59,94,100,2.59,CO
328,Marzuq,YE,14.4,46.4667,70.48,31,4,2.01,YE
329,Kayes,ML,14.0,-11.0,79.97,51,100,1.77,ML
330,Glarus,CH,47.0406,9.068,52.43,47,100,0.98,CH
331,Verkhnyaya Inta,RU,65.9811,60.3094,-6.86,89,39,6.91,RU
332,Jaypur,IN,18.85,82.5833,73.51,38,40,4.99,IN
333,Kavakli,TR,41.0926,28.3317,54.82,82,18,4.74,TR
334,Aksu,CN,41.1231,80.2644,42.3,36,100,2.71,CN
335,Le Mans,FR,48.0,0.2,48.13,93,40,5.75,FR
336,Fort-Shevchenko,KZ,44.5086,50.263,36.63,62,5,8.66,KZ
337,Berlevag,NO,70.8578,29.0864,41.0,81,100,25.32,NO
338,Mpika,ZM,-11.8343,31.4529,65.44,81,97,8.72,ZM
339,Plouzane,FR,48.3833,-4.6167,50.32,84,0,16.11,FR
340,Camabatela,AO,-8.1881,15.375,57.36,97,100,2.17,AO
341,Manta,EC,-0.95,-80.7333,71.38,78,0,11.5,EC
342,Akcaabat,TR,41.0212,39.5715,51.67,82,0,2.3,TR
343,Iskateley,RU,67.6803,53.1512,20.93,95,100,16.31,RU
344,Temir,KZ,49.1414,57.13,22.03,77,100,14.67,KZ
345,Altea,ES,38.5989,-0.0514,69.48,77,100,11.68,ES
346,Tamandare,BR,-8.7597,-35.1047,75.33,82,11,6.44,BR
347,Lyskovo,RU,56.0328,45.0422,24.28,83,96,2.01,RU
348,Gualaquiza,EC,-3.4,-78.55,63.77,100,100,0.74,EC
349,Puerto Carreno,CO,6.189,-67.4859,76.55,90,100,3.76,CO
350,Shrewsbury,GB,52.7101,-2.7521,46.69,93,40,8.05,GB
351,Vallenar,CL,-28.5708,-70.7581,62.04,71,100,2.44,CL
352,Barmer,IN,25.75,71.3833,78.04,25,0,7.96,IN
353,Panaba,MX,21.2833,-88.2667,73.63,92,22,5.26,MX
354,George Town,MY,5.4112,100.3354,84.13,82,40,0.0,MY
355,Durazno,UY,-33.4131,-56.5006,59.52,61,7,3.53,UY
356,Verkhniy Baskunchak,RU,48.2256,46.7217,29.35,57,84,8.88,RU
357,Mizdah,LY,31.4451,12.9801,53.29,39,0,7.0,LY
358,Telimele,GN,10.9167,-13.3333,70.3,91,100,0.63,GN
359,Sarai,RU,53.7458,41.0213,28.06,96,100,7.31,RU
360,Luebo,CD,-5.35,21.4167,69.53,98,100,0.69,CD
361,Tabou,CI,4.423,-7.3528,76.73,84,50,3.47,CI
362,Energetik,RU,51.7445,58.7934,20.07,68,74,14.74,RU
363,Constitucion,CL,-35.3333,-72.4167,56.41,78,8,10.58,CL
364,Tortoli,IT,39.9256,9.6572,64.53,77,100,7.9,IT
365,Cape Coast,GH,5.1053,-1.2466,77.29,85,16,5.39,GH
366,Satara,IN,17.6833,73.9833,76.41,46,0,5.46,IN
367,Camocim,BR,-2.9022,-40.8411,75.15,79,2,10.65,BR
368,Mao,ES,39.8885,4.2658,68.56,77,75,10.36,ES
369,Irgakly,RU,44.3611,44.7556,32.11,63,1,8.5,RU
370,Henties Bay,NA,-22.116,14.2845,58.59,90,1,8.55,NA
371,Coihaique,CL,-45.5752,-72.0662,44.55,100,75,3.44,CL
372,Riviere-Au-Renard,CA,48.9957,-64.3971,23.32,79,95,9.31,CA
373,Pestovo,RU,58.5938,35.8024,26.71,92,66,2.57,RU
374,Bilma,NE,18.6853,12.9164,62.38,28,17,6.78,NE
375,Chingirlau,KZ,51.095,54.0814,21.47,86,17,9.24,KZ
376,Zatoka,UA,46.0725,30.4654,51.13,84,100,11.5,UA
377,Bayan,CN,46.0833,127.4,36.48,37,51,9.28,CN
378,Timizart,DZ,36.8,4.2667,59.99,64,21,6.58,DZ
379,Banda Aceh,ID,5.5577,95.3222,83.43,72,100,16.2,ID
380,Balykshi,KZ,47.0667,51.8667,19.4,86,0,4.47,KZ
381,Izhma,RU,65.0083,53.9113,1.62,99,100,5.97,RU
382,Ustka,PL,54.5805,16.8619,42.66,67,97,18.84,PL
383,Emborion,GR,40.4833,21.55,43.16,99,80,4.45,GR
384,Charlestown,AU,-32.95,151.6667,67.78,70,91,13.8,AU
385,Nantucket,US,41.2835,-70.0995,50.11,83,100,11.5,US
386,Moose Factory,CA,51.2585,-80.6094,2.26,98,51,1.1,CA
387,Balta,UA,47.9355,29.6198,38.3,92,93,5.21,UA
388,Dundalk,US,39.2507,-76.5205,43.02,92,100,4.61,US
389,Port Shepstone,ZA,-30.7414,30.455,70.75,83,100,22.08,ZA
390,Kabo,CF,7.6994,18.629,69.37,43,79,2.73,CF
391,Tucupita,VE,9.0622,-62.051,72.82,99,100,2.75,VE
392,Narasannapeta,IN,18.4167,84.05,77.77,47,43,4.72,IN
393,Tambacounda,SN,13.7539,-13.7586,76.44,53,99,5.23,SN
394,Dioknisi,GE,41.6293,42.3917,41.9,61,44,5.55,GE
395,Los Llanos De Aridane,ES,28.6585,-17.9182,69.12,24,0,10.0,ES
396,Vestmanna,FO,62.1564,-7.1664,45.52,93,75,16.11,FO
397,Urumqi,CN,43.801,87.6005,36.55,65,100,4.47,CN
398,Omboue,GA,-1.5746,9.2618,76.03,84,100,4.54,GA
399,Kibala,TD,9.1104,18.3463,71.92,38,46,4.03,TD
400,West Bay,KY,19.3667,-81.4167,82.47,85,20,6.91,KY
401,Namibe,AO,-15.1961,12.1522,64.8,85,77,1.43,AO
402,Ylivieska,FI,64.0833,24.55,29.32,88,34,3.15,FI
403,Vilcun,CL,-38.65,-72.2333,47.14,98,25,2.06,CL
404,Sogne,NO,58.0833,7.8167,45.7,95,100,32.48,NO
405,Conceicao Do Araguaia,BR,-8.2578,-49.2647,74.32,89,99,3.78,BR
406,Kholmogory,RU,64.2229,41.656,29.7,95,100,8.08,RU
407,Cap-Aux-Meules,CA,47.3821,-61.8597,36.1,62,100,16.02,CA
408,Pushkino,RU,56.0172,37.8667,27.09,87,70,5.97,RU
409,Bandipur,NP,27.9333,84.4167,66.18,53,0,2.3,NP
410,Chalus,IR,36.655,51.4204,59.72,70,0,8.55,IR
411,Madimba,TZ,-10.4,40.3333,80.82,69,15,6.26,TZ
412,Itacarambi,BR,-15.1022,-44.0919,69.96,97,100,2.75,BR
413,Sfantu Gheorghe,RO,45.8667,25.7833,47.26,71,100,0.6,RO
414,Conceicao Da Barra,BR,-18.5933,-39.7322,73.94,93,78,7.52,BR
415,Lerwick,GB,60.1545,-1.1494,50.0,89,100,45.63,GB
416,Minab,IR,27.1467,57.0801,80.37,62,0,4.56,IR
417,Luanda,AO,-8.8368,13.2343,74.16,74,92,6.22,AO
418,Aykino,RU,62.2248,49.9922,8.85,94,92,2.46,RU
419,Strezhevoy,RU,60.7333,77.5889,3.4,89,97,9.57,RU
420,Porto Novo,BJ,6.4965,2.6036,74.37,92,27,4.59,BJ
421,Korla,CN,41.7597,86.1469,44.1,38,100,8.63,CN
422,Afrikanda,RU,67.4429,32.7828,29.89,92,100,10.87,RU
423,Sioux Lookout,CA,50.1001,-91.917,20.79,96,99,4.09,CA
424,Balkanabat,TM,39.5108,54.3671,50.23,60,24,6.51,TM
425,Cururupu,BR,-1.8283,-44.8683,74.62,85,23,4.05,BR
426,Merrill,US,45.1805,-89.6835,30.15,97,100,3.44,US
427,Nebolchi,RU,59.1239,33.3454,27.21,98,90,3.27,RU
428,Lima,PE,-12.0432,-77.0282,62.85,77,20,12.66,PE
429,Etaples,FR,50.5219,1.6332,47.16,87,0,6.91,FR
430,Adrar,MR,20.5022,-10.0711,70.39,29,0,10.11,MR
431,Pizarro,CO,4.9533,-77.366,75.4,92,100,3.87,CO
432,Rabo De Peixe,PT,37.8,-25.5833,66.27,97,75,16.11,PT
433,Afyonkarahisar,TR,38.75,30.6667,39.52,63,6,2.55,TR
434,Talnakh,RU,69.4865,88.3972,-18.15,99,90,5.17,RU
435,Djibo,BF,14.1022,-1.6306,71.51,14,34,9.44,BF
436,Tchibanga,GA,-2.85,11.0333,68.41,94,100,1.5,GA
437,Qaqortoq,GL,60.7167,-46.0333,15.22,91,100,5.03,GL
438,Anori,BR,-3.7728,-61.6442,73.83,99,100,2.73,BR
439,Kattivakkam,IN,13.2167,80.3167,84.29,66,15,12.15,IN
440,Rio Cuarto,AR,-33.1307,-64.3499,74.97,41,0,14.97,AR
441,Havre-Saint-Pierre,CA,50.2334,-63.5986,19.27,79,12,7.43,CA
442,Masuguru,TZ,-11.3667,38.4167,79.84,64,1,4.47,TZ
443,Maxixe,MZ,-23.8597,35.3472,71.42,83,20,0.0,MZ
444,Sapele,NG,5.8941,5.6767,74.59,91,44,2.46,NG
445,Chhoti Sadri,IN,24.3833,74.7,77.99,38,0,3.31,IN
446,Pesaro,IT,43.9036,12.8903,57.87,95,100,10.25,IT
447,Tsumeb,NA,-19.2333,17.7167,75.58,43,71,5.06,NA
448,Kalmunai,LK,7.4167,81.8167,82.47,74,100,10.29,LK
449,Revda,RU,56.801,59.9303,3.42,85,93,3.04,RU
450,Araria,IN,26.15,87.5167,77.23,39,0,3.87,IN
451,Amantea,IT,39.1332,16.0746,64.15,50,57,5.68,IT
452,Chaplynka,UA,46.3651,33.5403,46.76,84,100,10.16,UA
453,Strathaven,GB,55.6771,-4.0668,40.08,94,58,4.88,GB
454,Uran,IN,18.8769,72.9397,85.96,45,0,5.14,IN
455,Uige,AO,-7.6087,15.0613,61.61,95,100,0.89,AO
456,Soyo,AO,-6.1349,12.3689,76.33,79,95,6.17,AO
457,Llano De Piedra,PA,7.6667,-80.5667,75.9,99,86,2.89,PA
458,Puerto Cabello,VE,10.4731,-68.0125,79.86,83,45,1.48,VE
459,Key West,US,24.5557,-81.7826,84.2,83,40,3.44,US
460,Digby,CA,44.6169,-65.7655,33.96,68,100,0.87,CA
461,Busayra,JO,30.7376,35.6078,51.12,79,81,6.24,JO
462,Marechal Floriano,BR,-20.4128,-40.6831,66.45,99,99,0.58,BR
463,Fenoarivo,MG,-18.933,47.4354,68.07,73,40,6.91,MG
464,Kabare,CD,-2.4683,28.8242,63.27,91,100,2.59,CD
465,Sisimiut,GL,66.9395,-53.6735,14.58,92,97,6.04,GL
466,Mogadishu,SO,2.0371,45.3438,80.87,72,20,10.31,SO
467,Bereda,ES,43.2686,-7.5406,52.41,100,100,8.21,ES
468,Halifax,CA,44.6453,-63.5724,35.46,81,94,1.01,CA
469,Qena,EG,26.1615,32.7183,60.85,56,15,5.23,EG
470,Reconquista,AR,-29.15,-59.65,66.02,38,73,4.65,AR
471,Abu Dhabi,AE,24.4667,54.3667,86.97,65,0,6.64,AE
472,Oktyabrskiy,RU,54.4815,53.471,16.41,96,83,2.84,RU
473,Kjollefjord,NO,70.9457,27.3465,41.05,81,75,11.5,NO
474,Mecca,SA,21.4267,39.8261,78.94,69,0,2.1,SA
475,Cacapava Do Sul,BR,-30.5122,-53.4914,56.88,64,1,3.31,BR
476,Erandique,HN,14.2333,-88.4667,62.55,95,86,7.23,HN
477,Naryan-Mar,RU,67.6713,53.087,21.13,95,100,16.28,RU
478,Serenje,ZM,-13.2325,30.2352,65.19,84,28,8.9,ZM
479,Zhanakorgan,KZ,43.9098,67.2495,33.78,83,93,12.24,KZ
480,Hashtrud,IR,37.4779,47.0508,41.83,42,0,2.57,IR
481,Mgandu,TZ,-5.95,34.1333,69.31,54,74,8.21,TZ
482,Tarpon Springs,US,28.1461,-82.7568,75.97,93,100,11.01,US
483,Iralaya,HN,15.0,-83.2333,78.12,87,56,8.79,HN
484,Panyutyne,UA,48.9333,36.2833,32.47,95,74,8.39,UA
485,Lodja,CD,-3.4833,23.4333,69.51,99,100,0.6,CD
486,Cottbus,DE,51.7667,14.3333,39.61,93,54,8.32,DE
487,Kidal,ML,18.4411,1.4078,69.55,19,100,8.93,ML
488,Port Blair,IN,11.6667,92.75,79.11,85,100,11.59,IN
489,Novomalorossiyskaya,RU,45.6348,39.8948,37.09,69,72,3.94,RU
490,Juazeiro,BR,-9.4117,-40.4986,78.98,73,0,8.05,BR
491,Florida,US,28.7505,-82.5001,72.91,94,100,4.61,US
492,Sidi Ali,DZ,36.0998,0.4206,61.7,80,71,12.44,DZ
493,Raudeberg,NO,61.9875,5.1352,51.87,29,92,12.55,NO
494,Araioses,BR,-2.89,-41.9031,76.66,72,8,12.06,BR
495,Port Said,EG,31.2565,32.2841,66.24,68,43,13.09,EG
496,Timbiqui,CO,2.7717,-77.6654,73.72,96,100,4.59,CO
497,Bantry,IE,51.6833,-9.45,43.27,89,43,6.67,IE
498,Saint-Leu,RE,-21.15,55.2833,76.06,60,67,2.57,RE
499,Maddur,IN,12.6,77.0667,77.65,70,48,5.59,IN
500,Sorokino,RU,53.75,84.9167,35.47,78,81,16.17,RU
501,Nikolayevka,RU,53.1257,47.2041,23.13,90,100,2.95,RU
502,Bonavista,CA,48.6499,-53.1147,34.34,80,72,13.71,CA
503,Filingue,NE,14.3521,3.3168,68.18,15,25,9.69,NE
504,Sur,OM,22.5667,59.5289,82.87,49,0,2.55,OM
505,Ustye,RU,59.6304,39.736,27.14,95,93,3.13,RU
506,Natal,BR,-5.795,-35.2094,75.85,94,40,3.44,BR
507,Binga,ZW,-17.6203,27.3414,77.07,64,5,4.61,ZW
508,La Asuncion,VE,11.0333,-63.8628,79.45,82,54,12.93,VE
509,Serik,TR,36.9169,31.0989,54.75,46,0,5.06,TR
510,Sao Miguel Do Araguaia,BR,-13.275,-50.1628,71.83,93,83,3.22,BR
511,Areosa,PT,41.7178,-8.8571,59.04,92,100,13.87,PT
512,Krasnyy Oktyabr,RU,56.1167,38.8833,25.47,77,64,4.85,RU
513,Ulu-Telyak,RU,54.9086,56.9669,17.94,91,99,4.81,RU
514,Novosemeykino,RU,53.3833,50.3667,22.15,73,40,2.24,RU
515,Guarapari,BR,-20.6667,-40.4975,72.9,95,100,6.53,BR
516,Buraydah,SA,26.326,43.975,71.56,26,0,12.93,SA
517,Polovinnoye,RU,54.7914,65.9864,13.37,79,100,12.41,RU
518,Gazojak,TM,41.1875,61.4036,38.01,55,95,9.28,TM
519,Coshocton,US,40.272,-81.8596,40.46,96,100,3.0,US
520,Susangerd,IR,31.5608,48.1831,73.27,32,38,3.06,IR
521,Chimore,BO,-16.9833,-65.1333,77.63,64,99,2.46,BO
522,Policoro,IT,40.2115,16.6726,51.98,98,98,2.42,IT
523,Amarante Do Maranhao,BR,-5.5667,-46.7422,71.71,96,80,1.48,BR
524,Lovozero,RU,68.005,35.0117,34.0,98,100,15.48,RU
525,Dwarka,IN,22.2394,68.9678,82.78,48,5,5.84,IN
526,Lazurne,UA,46.084,32.5295,53.28,79,100,15.46,UA
527,Glyadyanskoye,RU,54.9075,65.0883,12.51,82,100,12.37,RU
528,Bay Roberts,CA,47.5999,-53.2648,34.52,89,16,7.99,CA
529,Marystown,CA,47.1666,-55.1483,34.47,72,69,10.04,CA
530,Ayabaca,PE,-4.6398,-79.7149,48.65,89,99,1.61,PE
531,Sistranda,NO,63.7256,8.834,40.96,58,0,13.89,NO
532,Dudinka,RU,69.4058,86.1778,-21.19,100,97,5.3,RU
533,Ellisras,ZA,-23.6649,27.7443,72.61,49,4,7.0,ZA
534,Barghat,IN,22.0333,79.7167,75.2,36,0,4.81,IN
535,Andros Town,BS,24.7,-77.7667,76.96,75,0,10.85,BS
536,Aswan,EG,24.0934,32.907,62.01,46,53,11.27,EG
537,Sesvete,HR,45.8311,16.1164,53.67,95,20,3.44,HR
538,Brumado,BR,-14.2036,-41.6653,71.1,90,53,5.44,BR
539,Grindavik,IS,63.8424,-22.4338,45.07,100,100,10.36,IS
540,Veshenskaya,RU,49.6303,41.7334,29.43,56,100,11.54,RU
541,Tutoia,BR,-2.7619,-42.2744,78.12,77,12,13.96,BR
542,Talmenka,RU,53.8183,83.5677,35.38,83,96,14.65,RU
543,Zhezkazgan,KZ,47.8043,67.7144,21.18,86,75,20.13,KZ
544,Mallaig,CA,54.2169,-111.3685,25.43,92,71,11.92,CA
545,Aksarka,RU,66.5606,67.7975,-7.37,85,76,8.03,RU
546,Iquique,CL,-20.2208,-70.1431,64.44,59,2,1.99,CL
547,Praia Da Vitoria,PT,38.7333,-27.0667,65.75,94,20,12.77,PT
548,Garowe,SO,8.4054,48.4845,75.4,63,50,7.9,SO
549,Ituiutaba,BR,-18.9689,-49.465,72.27,59,35,6.15,BR
550,Zaraza,VE,9.3503,-65.3245,72.19,96,87,4.27,VE
551,Mocuba,MZ,-16.8392,36.9856,78.28,75,16,3.29,MZ
552,Ashqelon,IL,31.6693,34.5715,62.49,54,5,11.88,IL
553,Mende,FR,44.6667,3.5,36.95,97,66,1.72,FR
554,Dubna,RU,56.7333,37.1667,23.94,83,31,4.03,RU
555,Sakakah,SA,29.9697,40.2064,61.86,80,10,8.32,SA
556,Tarauaca,BR,-8.1614,-70.7656,72.43,99,100,1.03,BR
557,Kismayo,SO,-0.3582,42.5454,80.94,71,42,8.68,SO
558,Tucuma,BR,-0.1833,-50.05,75.76,85,82,5.41,BR
559,Teguise,ES,29.0605,-13.564,64.62,56,0,8.05,ES
560,Inirida,CO,3.8653,-67.9239,73.74,96,100,2.48,CO
561,Arlit,NE,18.7369,7.3853,65.34,23,97,5.37,NE
562,Vilnius,LT,54.6892,25.2798,33.73,100,100,10.36,LT
563,Yarega,RU,63.4354,53.5765,-11.85,100,33,3.53,RU
564,Camacha,PT,33.0833,-16.3333,63.82,82,40,5.75,PT
565,La Primavera,CO,5.4906,-70.4092,77.29,86,100,5.26,CO
566,Anzio,IT,41.4853,12.6179,61.93,96,100,7.47,IT
567,Sokolka,PL,53.4072,23.5023,38.68,88,100,10.96,PL
568,Alanya,TR,36.5438,31.9998,55.53,50,3,5.1,TR
569,Conakry,GN,9.538,-13.6773,78.87,78,100,2.21,GN
570,Moen,NO,69.1304,18.6123,11.12,92,0,0.0,NO
571,Bhuj,IN,23.2667,69.6667,83.41,39,0,2.86,IN
572,Moussoro,TD,13.6408,16.4901,69.64,24,64,12.88,TD
573,Linares,CL,-35.85,-71.6,54.34,74,38,4.52,CL
574,Kanadey,RU,53.1679,47.5264,21.67,94,96,2.62,RU
575,San Rafael,AR,-34.6177,-68.3301,73.15,37,0,7.0,AR
576,Sehithwa,BW,-20.4667,22.7167,75.9,40,8,10.6,BW
577,Meiganga,CM,6.5167,14.3,64.83,52,96,4.03,CM
578,Rathdrum,US,47.8137,-116.892,27.64,85,0,6.91,US
579,Igrim,RU,63.1906,64.4162,-12.19,90,8,1.1,RU
580,Emba,KZ,48.8264,58.1442,22.48,74,100,16.2,KZ
581,Alfred,US,42.2542,-77.7906,31.19,98,100,1.99,US
582,Povrly,CZ,50.6728,14.1603,45.72,96,59,2.89,CZ
583,Guatire,VE,10.4762,-66.5427,71.94,97,75,1.28,VE
584,Hammerfest,NO,70.6634,23.6821,37.85,81,75,9.22,NO
585,Merritt Island,US,28.5392,-80.672,76.03,87,0,4.61,US
586,Edgewater,US,28.9889,-80.9023,71.1,88,94,5.28,US
587,Zile,TR,40.3031,35.8864,36.99,66,99,1.68,TR
588,Kiskunfelegyhaza,HU,46.7121,19.8446,48.94,99,100,7.05,HU
589,Hualmay,PE,-11.0964,-77.6139,62.98,88,49,8.34,PE
590,Storforshei,NO,66.4043,14.5233,25.66,93,0,3.44,NO
591,Waddan,LY,29.1614,16.139,58.46,39,17,3.89,LY
592,Awjilah,LY,29.1081,21.2869,59.65,54,21,5.5,LY
593,Seminole,US,28.7086,-81.2081,72.41,96,0,4.61,US
594,Oleksandrivka,UA,48.9634,32.2349,37.98,96,88,7.54,UA
595,Taltal,CL,-25.4,-70.4833,60.44,84,84,1.1,CL
596,Gari,RU,59.4307,62.3497,3.13,90,100,7.09,RU
597,Staryy Nadym,RU,65.6118,72.6842,-12.89,99,49,4.61,RU
598,Malatya,TR,38.5,38.0,42.85,100,100,0.0,TR
599,Eyl,SO,7.9803,49.8164,81.18,64,7,13.87,SO
600,Hambantota,LK,6.1241,81.1185,81.63,72,100,1.34,LK
601,Pavilosta,LV,56.8879,21.1859,39.11,70,78,15.73,LV
602,La Massana,AD,42.5667,1.4833,40.08,96,94,1.61,AD
603,Vila Do Maio,CV,15.1333,-23.2167,70.59,76,33,7.49,CV
604,Oussouye,SN,12.485,-16.5469,76.37,77,73,4.18,SN
605,Kiruna,SE,67.8557,20.2251,5.92,78,100,10.36,SE
606,Dinan,FR,48.4167,-2.25,49.5,92,91,13.98,FR
607,Khash,IR,28.2211,61.2158,61.79,43,0,2.08,IR
608,Pimenta Bueno,BR,-11.6725,-61.1936,70.9,97,100,1.54,BR
609,Carupano,VE,10.6678,-63.2585,77.09,90,95,5.86,VE
610,Vitoria Da Conquista,BR,-14.8661,-40.8394,64.72,96,99,4.38,BR
611,Umba,RU,66.6871,34.3429,34.32,92,100,9.64,RU
612,Lulea,SE,65.5842,22.1547,32.16,74,82,4.85,SE
613,Piacabucu,BR,-10.4056,-36.4344,75.13,87,23,9.01,BR
614,Puerto Del Rosario,ES,28.5004,-13.8627,65.95,68,0,4.61,ES
615,Boulsa,BF,12.6675,-0.5758,68.86,18,51,9.15,BF
616,Marau,BR,-28.4492,-52.2,54.12,80,0,1.74,BR
617,Carauari,BR,-4.8828,-66.8958,73.51,95,100,3.29,BR
618,Plerin,FR,48.5425,-2.7798,48.43,94,99,8.01,FR
619,Jaguey Grande,CU,22.5269,-81.1286,72.36,95,1,4.9,CU
620,Pedernales,DO,18.0384,-71.744,79.16,75,0,3.0,DO
621,Oranjemund,NA,-28.55,16.4333,59.63,75,19,6.04,NA
622,Marrakesh,MA,31.6315,-8.0083,62.67,36,0,2.3,MA
623,Golfito,CR,8.639,-83.166,74.23,95,100,1.25,CR
624,Pontes E Lacerda,BR,-15.2261,-59.3353,69.51,94,15,2.91,BR
625,Birjand,IR,32.8663,59.2211,54.59,32,0,0.2,IR
626,Wajir,KE,1.7471,40.0573,78.6,72,4,16.31,KE
627,Pocosol,CR,10.3667,-84.6167,75.29,97,100,2.39,CR
628,Pirgos,GR,35.1167,25.7178,57.61,71,43,1.59,GR
629,Dawlatabad,AF,36.4141,64.9053,52.41,40,1,2.8,AF
630,La Palma,US,33.8464,-118.0467,67.86,34,0,0.0,US
631,Kavaratti,IN,10.5669,72.642,81.57,71,92,1.48,IN
632,Lardos,GR,36.0942,28.0157,60.62,75,22,5.88,GR
633,Chutove,UA,49.7104,35.1603,36.01,90,77,9.28,UA
634,Colombia,CU,20.9881,-77.4297,72.01,94,0,6.64,CU
635,Van,TR,38.4924,43.3831,36.75,81,75,2.3,TR
636,Correia Pinto,BR,-27.5847,-50.3611,48.61,96,0,1.5,BR
637,San Andres,CO,12.5847,-81.7006,84.22,79,40,14.97,CO
638,Sarany,RU,58.5,58.8833,5.14,69,98,0.96,RU
639,Urdoma,RU,61.7533,48.5442,10.85,91,100,2.51,RU
640,Umuahia,NG,5.5263,7.4896,71.33,95,100,2.95,NG
641,Eregli,TR,37.5133,34.0467,44.76,73,45,1.28,TR
642,Kostroma,RU,57.7708,40.9344,24.33,86,40,2.98,RU
643,Aleksandrov Gay,RU,50.147,48.5704,29.97,63,100,7.43,RU
644,Wattegama,LK,6.7989,81.4808,83.75,66,100,4.83,LK
645,Manohar Thana,IN,24.24,76.8018,79.18,30,0,4.9,IN
646,Boende,CD,-0.2167,20.8667,70.5,98,100,2.04,CD
647,Cocobeach,GA,1.0002,9.5823,74.55,92,100,11.59,GA
648,Clinton,US,42.587,-82.9199,35.94,91,100,3.44,US
649,Sault Sainte Marie,CA,46.5168,-84.3333,26.89,86,100,9.22,CA
650,Olinda,BR,-8.0089,-34.8553,78.53,73,40,3.44,BR
651,Doha,QA,25.2867,51.5333,82.38,61,0,1.14,QA
652,Mangrol,IN,21.1167,70.1167,83.53,37,2,7.58,IN
653,Oriximina,BR,-1.7656,-55.8661,77.97,75,61,3.24,BR
654,Bad Wildbad,DE,48.75,8.55,49.87,91,100,5.35,DE
655,Mapiripan,CO,2.8892,-72.1256,73.58,95,100,1.99,CO
656,Diamantina,BR,-18.2494,-43.6003,64.53,90,100,2.26,BR
657,Yining,CN,29.0361,114.5636,65.01,66,97,1.01,CN
658,Hendrina,ZA,-26.1588,29.7153,63.03,59,47,4.88,ZA
659,Lebyazhye,RU,55.2689,66.4947,12.65,77,100,12.44,RU
660,Panguipulli,CL,-39.6333,-72.3333,49.05,99,76,2.13,CL
661,Caraballeda,VE,10.6112,-66.8522,77.07,88,40,0.0,VE
662,Baffa,PK,34.4378,73.2194,61.18,35,27,2.08,PK
663,Quelimane,MZ,-17.8786,36.8883,80.8,69,3,3.8,MZ
664,Foso,GH,5.7012,-1.2866,71.46,98,28,2.1,GH
665,Toamasina,MG,-18.1667,49.3833,75.29,80,75,6.08,MG
666,Tornio,FI,65.8481,24.1466,15.82,78,98,4.9,FI
